City_ID,City,Lat,Lng,Max Temp,Humidity,Cloudiness,Wind Speed,Country,Date,Current Description
0,Kilembe,0.2,30.0,64.18,76,38,4.43,UG,2022-03-25 19:29:57,light rain
1,Quelimane,-17.8786,36.8883,76.57,90,1,5.5,MZ,2022-03-25 19:25:27,clear sky
2,Cape Town,-33.9258,18.4232,66.27,64,0,18.41,ZA,2022-03-25 19:30:00,clear sky
3,Nova Olinda Do Norte,-3.8881,-59.0942,85.5,68,93,3.6,BR,2022-03-25 19:30:01,overcast clouds
4,Novopokrovka,49.8425,36.5477,39.29,68,2,2.35,UA,2022-03-25 19:30:02,clear sky
5,Meulaboh,4.1363,96.1285,77.76,86,48,2.1,ID,2022-03-25 19:30:03,light rain
6,Ahipara,-35.1667,173.1667,66.65,76,65,10.54,NZ,2022-03-25 19:30:04,broken clouds
7,Kruisfontein,-34.0033,24.7314,58.89,80,63,4.76,ZA,2022-03-25 19:30:05,broken clouds
8,Tiksi,71.6872,128.8694,-10.39,100,90,4.56,RU,2022-03-25 19:30:07,overcast clouds
9,Bluff,-46.6,168.3333,59.29,80,100,15.1,NZ,2022-03-25 19:30:08,overcast clouds
10,Ushuaia,-54.8,-68.3,58.66,47,40,16.11,AR,2022-03-25 19:29:21,scattered clouds
11,Qaanaaq,77.484,-69.3632,-2.45,73,86,6.85,GL,2022-03-25 19:29:00,overcast clouds
12,Castro,-24.7911,-50.0119,65.19,99,100,3.11,BR,2022-03-25 19:30:09,moderate rain
13,Lambarene,-0.7001,10.2406,78.22,91,99,3.56,GA,2022-03-25 19:30:10,light rain
14,Punta Arenas,-53.15,-70.9167,60.91,48,75,21.85,CL,2022-03-25 19:28:39,light rain
15,Barrow,71.2906,-156.7887,-2.18,78,100,18.41,US,2022-03-25 19:30:13,haze
16,Puerto Ayora,-0.7393,-90.3518,87.76,75,71,7.16,EC,2022-03-25 19:28:22,light rain
17,Tilichiki,60.4667,166.1,13.14,88,100,6.58,RU,2022-03-25 19:30:14,overcast clouds
18,Douglas,41.3,-96.167,54.61,32,0,28.77,US,2022-03-25 19:26:46,clear sky
19,Atuona,-9.8,-139.0333,79.36,79,40,21.05,PF,2022-03-25 19:30:15,scattered clouds
20,Puerto Carreno,6.189,-67.4859,94.98,43,40,12.66,CO,2022-03-25 19:30:10,scattered clouds
21,Zhireken,52.8249,117.3076,19.08,97,100,4.12,RU,2022-03-25 19:30:16,light snow
22,Grindavik,63.8424,-22.4338,42.75,100,100,34.52,IS,2022-03-25 19:30:16,light intensity drizzle
23,Ust-Ishim,57.6935,71.1665,17.38,87,100,12.46,RU,2022-03-25 19:30:17,overcast clouds
24,Parsabad,39.6482,47.9174,43.54,80,9,6.93,IR,2022-03-25 19:30:17,clear sky
25,Cidreira,-30.1811,-50.2056,74.07,57,29,8.1,BR,2022-03-25 19:30:18,scattered clouds
26,Hobart,-42.8794,147.3294,52.05,93,0,2.3,AU,2022-03-25 19:30:02,clear sky
27,Hermanus,-34.4187,19.2345,60.8,70,78,15.14,ZA,2022-03-25 19:30:19,broken clouds
28,Xining,36.6167,101.7667,30.6,67,100,1.59,CN,2022-03-25 19:30:19,overcast clouds
29,Cherskiy,68.75,161.3,-14.76,100,87,9.31,RU,2022-03-25 19:30:20,overcast clouds
30,Shar,49.5886,81.0453,17.38,87,10,11.43,KZ,2022-03-25 19:30:20,clear sky
31,New Norfolk,-42.7826,147.0587,51.71,85,6,2.62,AU,2022-03-25 19:30:21,clear sky
32,Nongstoin,25.5167,91.2667,60.04,83,22,6.06,IN,2022-03-25 19:30:21,few clouds
33,Busselton,-33.65,115.3333,67.26,78,100,6.26,AU,2022-03-25 19:30:22,overcast clouds
34,Batemans Bay,-35.7167,150.1833,62.1,87,60,5.06,AU,2022-03-25 19:30:13,broken clouds
35,Henties Bay,-22.116,14.2845,63.16,85,68,6.38,NA,2022-03-25 19:30:24,broken clouds
36,Mataura,-46.1927,168.8643,51.91,97,89,2.89,NZ,2022-03-25 19:30:25,overcast clouds
37,Tessalit,20.1986,1.0114,90.16,10,97,5.86,ML,2022-03-25 19:30:26,overcast clouds
38,Takoradi,4.8845,-1.7554,82.53,82,100,9.84,GH,2022-03-25 19:29:05,overcast clouds
39,Maniitsoq,65.4167,-52.9,19.8,91,99,3.27,GL,2022-03-25 19:30:27,overcast clouds
40,Chokurdakh,70.6333,147.9167,-1.93,96,100,8.21,RU,2022-03-25 19:30:27,overcast clouds
41,Rikitea,-23.1203,-134.9692,79.57,73,88,19.35,PF,2022-03-25 19:30:28,overcast clouds
42,Mar Del Plata,-38.0023,-57.5575,64.42,82,75,11.5,AR,2022-03-25 19:30:06,broken clouds
43,Kyren,51.6828,102.1408,9.05,80,12,2.1,RU,2022-03-25 19:30:29,few clouds
44,Khatanga,71.9667,102.5,-22.38,100,90,3.89,RU,2022-03-25 19:30:30,overcast clouds
45,Urumqi,43.801,87.6005,34.75,70,0,2.24,CN,2022-03-25 19:31:30,clear sky
46,Salalah,17.0151,54.0924,77.09,83,0,2.3,OM,2022-03-25 19:31:30,clear sky
47,Thompson,55.7435,-97.8558,3.36,72,100,14.97,CA,2022-03-25 19:31:31,overcast clouds
48,Vaini,-21.2,-175.2,75.36,88,20,5.75,TO,2022-03-25 19:31:32,few clouds
49,Verkhoyansk,67.5447,133.385,-18.33,100,96,2.44,RU,2022-03-25 19:31:34,overcast clouds
50,Bacolod,10.6667,122.95,78.84,80,5,7.45,PH,2022-03-25 19:29:21,clear sky
51,Dikson,73.5069,80.5464,9.5,90,100,10.45,RU,2022-03-25 19:31:37,overcast clouds
52,Lubango,-14.9172,13.4925,60.44,67,10,3.78,AO,2022-03-25 19:31:38,clear sky
53,Lebu,-37.6167,-73.65,59.65,70,0,15.1,CL,2022-03-25 19:31:11,clear sky
54,Victoria,22.2855,114.1577,78.94,92,46,15.99,HK,2022-03-25 19:26:52,scattered clouds
55,Mahebourg,-20.4081,57.7,79.09,89,40,1.14,MU,2022-03-25 19:31:39,scattered clouds
56,Miami,25.7743,-80.1937,78.03,48,75,10.36,US,2022-03-25 19:30:16,broken clouds
57,Bumba,2.1833,22.4667,72.0,95,100,4.07,CD,2022-03-25 19:31:40,overcast clouds
58,Saint-Philippe,-21.3585,55.7679,78.39,85,13,6.22,RE,2022-03-25 19:31:40,few clouds
59,Jamestown,42.097,-79.2353,41.02,69,100,11.5,US,2022-03-25 19:28:45,light rain
60,Port Alfred,-33.5906,26.891,65.95,78,93,5.95,ZA,2022-03-25 19:31:44,light rain
61,Berlevag,70.8578,29.0864,24.04,64,100,13.4,NO,2022-03-25 19:31:44,overcast clouds
62,Padang,-0.9492,100.3543,76.42,81,21,3.33,ID,2022-03-25 19:31:45,few clouds
63,Ishikari,43.2397,141.3539,38.8,89,100,17.43,JP,2022-03-25 19:31:45,overcast clouds
64,Kaeo,-35.1,173.7833,62.33,91,42,8.99,NZ,2022-03-25 19:31:46,scattered clouds
65,Puerto Quijarro,-17.7833,-57.7667,83.89,56,65,7.14,BO,2022-03-25 19:31:47,broken clouds
66,Georgetown,5.4112,100.3354,78.73,93,20,3.44,MY,2022-03-25 19:30:40,few clouds
67,Clyde River,70.4692,-68.5914,-3.77,71,20,11.5,CA,2022-03-25 19:31:48,few clouds
68,Ossora,59.2353,163.0719,11.35,84,100,4.54,RU,2022-03-25 19:31:49,overcast clouds
69,Vila Velha,-20.3297,-40.2925,84.15,74,0,17.27,BR,2022-03-25 19:31:49,clear sky
70,Prinos,40.75,24.5833,54.86,59,21,7.34,GR,2022-03-25 19:31:50,few clouds
71,Kenai,60.5544,-151.2583,42.89,65,100,24.16,US,2022-03-25 19:31:50,overcast clouds
72,Vrangel,42.7297,133.0839,38.68,99,100,7.96,RU,2022-03-25 19:31:51,overcast clouds
73,Bredasdorp,-34.5322,20.0403,64.36,65,100,12.71,ZA,2022-03-25 19:31:51,overcast clouds
74,Comodoro Rivadavia,-45.8667,-67.5,66.06,45,0,16.11,AR,2022-03-25 19:30:01,clear sky
75,Semey,50.4111,80.2275,20.7,81,15,10.09,KZ,2022-03-25 19:31:52,few clouds
76,Homer,59.6425,-151.5483,42.76,72,75,9.22,US,2022-03-25 19:31:36,broken clouds
77,Buraydah,26.326,43.975,64.85,20,0,14.79,SA,2022-03-25 19:31:53,clear sky
78,Shimoda,34.6667,138.95,55.11,78,100,9.64,JP,2022-03-25 19:31:54,overcast clouds
79,Oxapampa,-10.5775,-75.4017,64.53,96,100,2.01,PE,2022-03-25 19:31:54,moderate rain
80,Teya,60.3778,92.6267,19.98,92,100,7.18,RU,2022-03-25 19:31:55,overcast clouds
81,Mehamn,71.0357,27.8492,22.6,68,100,11.9,NO,2022-03-25 19:31:56,overcast clouds
82,Sulangan,11.1373,123.7228,81.55,79,34,13.49,PH,2022-03-25 19:31:57,scattered clouds
83,Sept-Iles,50.2001,-66.3821,30.06,94,100,16.11,CA,2022-03-25 19:31:59,snow
84,Albany,42.6001,-73.9662,54.95,68,97,11.74,US,2022-03-25 19:32:01,overcast clouds
85,Kodiak,57.79,-152.4072,35.11,93,100,5.75,US,2022-03-25 19:32:03,overcast clouds
86,Ust-Kuyga,70.0167,135.6,-8.57,100,98,3.38,RU,2022-03-25 19:32:03,overcast clouds
87,Cabo San Lucas,22.8909,-109.9124,83.61,40,40,9.22,MX,2022-03-25 19:29:40,scattered clouds
88,Ribeira Grande,38.5167,-28.7,61.2,94,75,32.21,PT,2022-03-25 19:32:31,broken clouds
89,Poum,-20.2333,164.0167,79.45,78,93,11.88,NC,2022-03-25 19:33:04,overcast clouds
90,Butaritari,3.0707,172.7902,79.92,79,30,11.54,KI,2022-03-25 19:33:05,scattered clouds
91,Kalaleh,37.3807,55.4916,41.36,79,37,3.78,IR,2022-03-25 19:33:05,scattered clouds
92,Tuktoyaktuk,69.4541,-133.0374,-11.2,70,0,14.97,CA,2022-03-25 19:32:34,clear sky
93,Nouakchott,18.0858,-15.9785,75.13,67,0,15.23,MR,2022-03-25 19:33:06,clear sky
94,Fortuna,40.5982,-124.1573,62.92,70,0,1.99,US,2022-03-25 19:30:52,clear sky
95,Kapaa,22.0752,-159.319,77.18,71,100,21.85,US,2022-03-25 19:33:07,light rain
96,Souillac,-20.5167,57.5167,79.18,89,40,1.14,MU,2022-03-25 19:33:08,scattered clouds
97,Palasa,18.7667,84.4167,76.77,94,50,8.63,IN,2022-03-25 19:33:09,scattered clouds
98,Tecolutla,20.4833,-97.0167,84.06,53,36,11.9,MX,2022-03-25 19:33:09,scattered clouds
99,Codrington,-38.2667,141.9667,52.68,95,23,4.38,AU,2022-03-25 19:33:10,few clouds
100,Bethel,41.3712,-73.414,58.17,56,100,11.01,US,2022-03-25 19:33:11,overcast clouds
101,Carnarvon,-24.8667,113.6333,78.87,89,47,9.22,AU,2022-03-25 19:33:12,scattered clouds
102,Javanrud,34.7961,46.5172,34.61,92,49,2.91,IR,2022-03-25 19:33:13,light snow
103,Yulara,-25.2406,130.9889,73.24,35,40,10.36,AU,2022-03-25 19:33:14,scattered clouds
104,Yellowknife,62.456,-114.3525,-6.72,48,0,2.3,CA,2022-03-25 19:30:51,clear sky
105,Provideniya,64.3833,-173.3,10.42,89,99,3.06,RU,2022-03-25 19:33:15,overcast clouds
106,Pevek,69.7008,170.3133,-16.37,98,95,3.87,RU,2022-03-25 19:33:15,overcast clouds
107,Chilchota,19.85,-102.1333,83.52,10,0,6.15,MX,2022-03-25 19:33:16,clear sky
108,Kavieng,-2.5744,150.7967,80.67,75,100,5.39,PG,2022-03-25 19:33:17,light rain
109,Nizhniy Kuranakh,58.8353,125.4869,-0.53,99,95,1.81,RU,2022-03-25 19:33:18,overcast clouds
110,Gilgit,35.9221,74.3087,48.06,52,0,5.73,PK,2022-03-25 19:33:18,clear sky
111,Lipin Bor,60.2622,37.9763,32.31,97,100,15.32,RU,2022-03-25 19:33:19,light snow
112,Nishihara,26.1842,127.7558,73.45,97,100,20.71,JP,2022-03-25 19:33:20,mist
113,Gizo,-8.103,156.8419,82.38,74,50,3.29,SB,2022-03-25 19:33:21,light rain
114,Polunochnoye,60.8697,60.4153,9.61,89,8,4.97,RU,2022-03-25 19:33:23,clear sky
115,Sirohi,24.8833,72.8667,78.85,19,0,6.04,IN,2022-03-25 19:33:24,clear sky
116,Gat,31.61,34.7642,52.48,100,21,4.94,IL,2022-03-25 19:33:25,few clouds
117,Puerto Escondido,15.85,-97.0667,85.03,65,20,6.91,MX,2022-03-25 19:33:26,few clouds
118,Aasiaat,68.7098,-52.8699,17.55,93,100,1.12,GL,2022-03-25 19:33:27,overcast clouds
119,Skjervoy,70.0311,20.9714,26.6,72,100,19.8,NO,2022-03-25 19:33:29,light snow
120,Ajjampur,13.7281,76.0094,73.47,83,64,4.29,IN,2022-03-25 19:33:30,light rain
121,Varnavino,57.4035,45.0916,29.17,89,100,8.99,RU,2022-03-25 19:33:31,overcast clouds
122,Sarangani,5.4033,125.4636,81.5,77,100,10.2,PH,2022-03-25 19:33:34,overcast clouds
123,Port Blair,11.6667,92.75,78.84,89,20,3.44,IN,2022-03-25 19:28:55,mist
124,Solnechnyy,50.7214,136.6319,18.86,96,100,4.81,RU,2022-03-25 19:33:34,overcast clouds
125,Havre-Saint-Pierre,50.2334,-63.5986,30.56,80,100,16.11,CA,2022-03-25 19:33:35,overcast clouds
126,Banjar,-8.19,114.9675,77.77,88,38,2.53,ID,2022-03-25 19:33:35,scattered clouds
127,Miri,4.4148,114.0089,75.34,88,40,3.44,MY,2022-03-25 19:33:36,scattered clouds
128,Arraial Do Cabo,-22.9661,-42.0278,87.76,65,0,16.11,BR,2022-03-25 19:30:31,clear sky
129,Llandrindod Wells,52.2416,-3.3787,50.38,82,6,3.56,GB,2022-03-25 19:33:36,clear sky
130,Nipawin,53.3668,-104.0009,15.84,48,0,14.97,CA,2022-03-25 19:33:38,clear sky
131,Mokhsogollokh,61.4681,128.9203,-3.21,100,100,1.39,RU,2022-03-25 19:33:39,overcast clouds
132,Edeia,-17.3383,-49.9314,79.45,71,99,4.41,BR,2022-03-25 19:33:41,moderate rain
133,Ulaanbaatar,47.9077,106.8832,5.13,56,40,2.24,MN,2022-03-25 19:33:42,scattered clouds
134,Hay River,60.8156,-115.7999,-9.42,59,20,13.8,CA,2022-03-25 19:34:42,few clouds
135,Pangnirtung,66.1451,-65.7125,8.6,78,75,12.66,CA,2022-03-25 19:34:43,broken clouds
136,Kangayam,11.0,77.5667,79.9,71,8,3.18,IN,2022-03-25 19:34:44,clear sky
137,Hervey Bay,-25.2986,152.8535,68.02,88,6,17.0,AU,2022-03-25 19:34:44,clear sky
138,Flinders,-34.5833,150.8552,64.18,92,73,7.0,AU,2022-03-25 19:30:34,broken clouds
139,Eirunepe,-6.6603,-69.8736,79.66,90,96,1.28,BR,2022-03-25 19:34:45,overcast clouds
140,Iqaluit,63.7506,-68.5145,19.13,85,75,11.5,CA,2022-03-25 19:33:26,light snow
141,Boa Vista,2.8197,-60.6733,93.18,46,75,11.5,BR,2022-03-25 19:32:29,broken clouds
142,Doctor Mora,21.1417,-100.3125,70.05,18,0,12.3,MX,2022-03-25 19:34:47,clear sky
143,Luderitz,-26.6481,15.1594,63.84,74,0,14.74,NA,2022-03-25 19:34:47,clear sky
144,Kirakira,-10.4544,161.9205,79.75,81,55,1.36,SB,2022-03-25 19:34:49,broken clouds
145,Riyadh,24.6877,46.7219,68.14,19,0,8.81,SA,2022-03-25 19:30:48,clear sky
146,Nanortalik,60.1432,-45.2371,29.41,72,55,1.86,GL,2022-03-25 19:34:51,broken clouds
147,Abnub,27.2696,31.1511,59.22,36,0,11.3,EG,2022-03-25 19:32:47,clear sky
148,Ponta Do Sol,32.6667,-17.1,63.01,79,59,2.48,PT,2022-03-25 19:34:19,broken clouds
149,Port Moresby,-9.4431,147.1797,72.82,100,20,5.75,PG,2022-03-25 19:33:00,few clouds
150,Kungurtug,50.5994,97.5228,-6.48,95,67,2.48,RU,2022-03-25 19:34:52,broken clouds
151,Bilma,18.6853,12.9164,76.96,12,0,8.05,NE,2022-03-25 19:34:53,clear sky
152,Necochea,-38.5473,-58.7368,62.26,94,100,23.38,AR,2022-03-25 19:34:53,overcast clouds
153,Nikolskoye,59.7035,30.7861,43.88,89,100,13.27,RU,2022-03-25 19:32:49,overcast clouds
154,Joshimath,30.5667,79.5667,47.68,48,18,8.7,IN,2022-03-25 19:34:54,few clouds
155,San Patricio,28.017,-97.5169,93.29,15,0,3.8,US,2022-03-25 19:31:08,clear sky
156,Svetlaya,46.5389,138.3297,32.34,91,100,4.63,RU,2022-03-25 19:32:21,overcast clouds
157,Leningradskiy,69.3833,178.4167,-7.67,94,100,7.74,RU,2022-03-25 19:34:55,overcast clouds
158,Hithadhoo,-0.6,73.0833,83.37,69,12,15.05,MV,2022-03-25 19:34:56,few clouds
159,Robertsport,6.7533,-11.3686,80.06,86,1,7.16,LR,2022-03-25 19:34:56,light rain
160,Durban,-29.8579,31.0292,69.03,87,91,5.01,ZA,2022-03-25 19:30:07,overcast clouds
161,Upernavik,72.7868,-56.1549,7.72,89,100,19.73,GL,2022-03-25 19:33:46,overcast clouds
162,Sitka,57.0531,-135.33,39.09,81,75,8.05,US,2022-03-25 19:34:59,light rain
163,Esperance,-33.8667,121.9,62.44,70,100,16.46,AU,2022-03-25 19:35:00,overcast clouds
164,Portree,57.4129,-6.1942,48.52,90,60,3.09,GB,2022-03-25 19:35:01,broken clouds
165,Tasiilaq,65.6145,-37.6368,17.76,95,100,7.78,GL,2022-03-25 19:35:02,snow
166,Cam Ranh,11.9214,109.1591,78.76,89,0,0.0,VN,2022-03-25 19:35:03,clear sky
167,Hilo,19.7297,-155.09,78.53,62,0,6.91,US,2022-03-25 19:35:03,clear sky
168,Niltepec,16.5667,-94.6167,86.2,39,100,15.05,MX,2022-03-25 19:35:04,overcast clouds
169,Velyka Lepetykha,47.1757,33.9436,40.71,58,85,4.74,UA,2022-03-25 19:35:04,overcast clouds
170,Winnemucca,40.973,-117.7357,73.45,19,0,5.75,US,2022-03-25 19:35:05,clear sky
171,Etchoropo,26.7667,-109.6667,82.26,24,84,8.39,MX,2022-03-25 19:35:06,broken clouds
172,Severo-Kurilsk,50.6789,156.125,28.24,85,66,7.0,RU,2022-03-25 19:35:06,broken clouds
173,Denpasar,-8.65,115.2167,80.26,94,40,2.3,ID,2022-03-25 19:32:56,scattered clouds
174,Husavik,66.0449,-17.3389,30.94,85,100,13.13,IS,2022-03-25 19:32:31,overcast clouds
175,Komsomolskiy,40.4272,71.7189,45.32,81,83,2.3,UZ,2022-03-25 19:35:07,broken clouds
176,Saldanha,-33.0117,17.9442,63.79,72,3,16.17,ZA,2022-03-25 19:35:08,clear sky
177,Monrovia,6.3005,-10.7969,82.17,84,0,7.38,LR,2022-03-25 19:35:10,light rain
178,Sao Jose Da Coroa Grande,-8.8978,-35.1478,79.99,80,51,9.01,BR,2022-03-25 19:35:11,broken clouds
179,Airai,-8.9266,125.4092,59.36,92,93,1.25,TL,2022-03-25 19:35:14,overcast clouds
180,Poya,-21.35,165.15,75.79,87,99,5.14,NC,2022-03-25 19:36:14,overcast clouds
181,Correntina,-13.3433,-44.6367,87.96,41,33,0.83,BR,2022-03-25 19:35:54,scattered clouds
182,Changping,40.2186,116.2197,35.24,41,39,8.03,CN,2022-03-25 19:36:15,scattered clouds
183,Megion,61.0296,76.1136,17.02,91,100,25.52,RU,2022-03-25 19:36:16,overcast clouds
184,Santa Lucia,27.9117,-15.5407,58.32,68,75,12.66,ES,2022-03-25 19:33:53,broken clouds
185,Nouadhibou,20.931,-17.0347,66.18,63,80,16.11,MR,2022-03-25 19:36:17,broken clouds
186,Pisco,-13.7,-76.2167,77.02,68,0,8.05,PE,2022-03-25 19:36:18,clear sky
187,Umm Lajj,25.0213,37.2685,63.81,52,0,12.12,SA,2022-03-25 19:31:56,clear sky
188,High Level,58.5169,-117.136,10.51,56,75,6.91,CA,2022-03-25 19:35:13,broken clouds
189,Zatoka,46.0725,30.4654,42.51,66,84,11.07,UA,2022-03-25 19:36:21,broken clouds
190,Guerrero Negro,27.9769,-114.0611,83.61,18,78,3.24,MX,2022-03-25 19:36:23,broken clouds
191,Chuy,-33.6971,-53.4616,68.09,48,27,14.76,UY,2022-03-25 19:36:24,scattered clouds
192,Dingle,10.9995,122.6711,76.24,89,6,6.76,PH,2022-03-25 19:34:14,clear sky
193,Klaksvik,62.2266,-6.589,40.12,92,100,18.54,FO,2022-03-25 19:36:25,overcast clouds
194,Coquimbo,-29.9533,-71.3436,65.93,72,75,13.8,CL,2022-03-25 19:31:33,broken clouds
195,Leh,34.1667,77.5833,15.78,61,1,4.85,IN,2022-03-25 19:32:20,clear sky
196,Darlawn,24.0167,92.9,59.72,98,15,2.39,IN,2022-03-25 19:36:27,few clouds
197,Ilulissat,69.2167,-51.1,19.42,79,100,4.61,GL,2022-03-25 19:36:28,light snow
198,Methoni,36.8197,21.7049,53.46,77,2,16.2,GR,2022-03-25 19:36:28,clear sky
199,Kavaratti,10.5669,72.642,82.11,65,4,3.98,IN,2022-03-25 19:36:30,clear sky
200,Asyut,27.181,31.1837,59.18,36,0,10.16,EG,2022-03-25 19:36:32,clear sky
201,Anadyr,64.75,177.4833,-1.7,84,40,4.47,RU,2022-03-25 19:36:33,scattered clouds
202,Sambava,-14.2667,50.1667,78.75,87,91,5.23,MG,2022-03-25 19:36:34,light rain
203,Jalpan,21.2333,-99.4833,82.53,20,0,6.08,MX,2022-03-25 19:34:11,clear sky
204,Raga,8.4596,25.678,79.09,14,11,5.1,SS,2022-03-25 19:36:36,few clouds
205,Hualmay,-11.0964,-77.6139,74.66,72,95,8.46,PE,2022-03-25 19:36:36,overcast clouds
206,Kahului,20.8947,-156.47,80.62,66,20,23.02,US,2022-03-25 19:33:06,few clouds
207,Katima Mulilo,-17.5,24.2667,69.48,93,100,4.07,NA,2022-03-25 19:36:40,light rain
208,Qandala,11.472,49.8728,76.1,61,0,1.9,SO,2022-03-25 19:34:39,clear sky
209,Hambantota,6.1241,81.1185,78.13,80,0,3.69,LK,2022-03-25 19:36:41,clear sky
210,Talnakh,69.4865,88.3972,15.21,88,100,9.6,RU,2022-03-25 19:36:43,overcast clouds
211,Ciudad Bolivar,8.1222,-63.5497,90.03,44,95,12.03,VE,2022-03-25 19:36:43,overcast clouds
212,Porto Walter,-8.2686,-72.7439,77.14,84,95,4.27,BR,2022-03-25 19:36:44,overcast clouds
213,Port Elizabeth,-33.918,25.5701,61.11,87,0,2.3,ZA,2022-03-25 19:36:45,clear sky
214,Strandby,57.4915,10.4961,47.66,75,5,23.62,DK,2022-03-25 19:36:46,clear sky
215,Sao Filipe,14.8961,-24.4956,70.48,73,11,7.34,CV,2022-03-25 19:36:46,few clouds
216,Deori Khas,23.4,79.0167,81.61,16,16,4.27,IN,2022-03-25 19:36:47,few clouds
217,Dauriya,49.9333,116.8667,19.58,77,92,7.67,RU,2022-03-25 19:36:47,overcast clouds
218,Sibu,2.3,111.8167,71.91,100,40,5.01,MY,2022-03-25 19:36:49,scattered clouds
219,Longyearbyen,78.2186,15.6401,-0.56,78,20,3.44,SJ,2022-03-25 19:36:50,few clouds
220,Norman Wells,65.282,-126.8329,5.04,66,20,25.32,CA,2022-03-25 19:36:50,few clouds
221,Bengkulu,-3.8004,102.2655,76.01,85,36,5.01,ID,2022-03-25 19:36:51,scattered clouds
222,Parainen,60.3067,22.301,44.15,74,100,21.94,FI,2022-03-25 19:36:52,overcast clouds
223,Bilibino,68.0546,166.4372,-4.49,100,100,0.49,RU,2022-03-25 19:36:53,overcast clouds
224,Te Anau,-45.4167,167.7167,49.84,93,39,1.12,NZ,2022-03-25 19:36:54,scattered clouds
225,Yenangyaung,20.4667,94.8833,77.86,74,59,5.84,MM,2022-03-25 19:36:55,broken clouds
226,Los Llanos De Aridane,28.6585,-17.9182,59.13,82,75,5.99,ES,2022-03-25 19:37:55,light intensity drizzle
227,Lavrentiya,65.5833,-171.0,9.16,89,46,5.39,RU,2022-03-25 19:37:56,scattered clouds
228,Geraldton,-28.7667,114.6,75.61,78,40,6.91,AU,2022-03-25 19:37:57,scattered clouds
229,Tres Arroyos,-38.3739,-60.2798,61.7,93,100,18.66,AR,2022-03-25 19:38:00,overcast clouds
230,Rozsypne,48.1497,38.5762,37.58,58,1,3.96,UA,2022-03-25 19:38:00,clear sky
231,Altay,47.8667,88.1167,18.21,58,15,7.85,CN,2022-03-25 19:38:01,few clouds
232,Bambous Virieux,-20.3428,57.7575,79.05,89,40,1.14,MU,2022-03-25 19:38:02,scattered clouds
233,Yuncheng,35.0231,110.9928,47.79,35,100,6.91,CN,2022-03-25 19:38:05,overcast clouds
234,Coffeyville,37.0373,-95.6164,61.02,41,40,12.66,US,2022-03-25 19:38:05,scattered clouds
235,Alta Floresta,-9.8756,-56.0861,82.22,78,75,1.14,BR,2022-03-25 19:33:53,thunderstorm
236,Santa Cruz,-17.8,-63.1667,60.85,67,100,18.41,BO,2022-03-25 19:33:22,moderate rain
237,Avarua,-21.2078,-159.775,80.65,83,20,10.36,CK,2022-03-25 19:38:06,few clouds
238,Itaqui,-29.1253,-56.5531,68.83,63,94,12.39,BR,2022-03-25 19:35:45,overcast clouds
239,Makakilo City,21.3469,-158.0858,72.01,87,75,10.36,US,2022-03-25 19:33:47,light rain
240,Joinville,-26.3044,-48.8456,78.1,88,75,1.14,BR,2022-03-25 19:33:29,light rain
241,Lorengau,-2.0226,147.2712,81.28,76,100,7.63,PG,2022-03-25 19:38:08,overcast clouds
242,Maragogi,-9.0122,-35.2225,79.68,81,50,8.97,BR,2022-03-25 19:38:09,scattered clouds
243,Acarau,-2.8856,-40.12,81.46,78,41,10.07,BR,2022-03-25 19:38:10,scattered clouds
244,Yongchang,30.0381,119.7317,55.11,90,94,4.05,CN,2022-03-25 19:38:11,overcast clouds
245,Oranjestad,12.524,-70.027,82.35,74,75,23.02,AW,2022-03-25 19:38:11,broken clouds
246,Tazovskiy,67.4667,78.7,18.28,95,100,13.65,RU,2022-03-25 19:38:12,light snow
247,Wegrow,52.3995,22.0163,42.91,58,1,7.9,PL,2022-03-25 19:38:12,clear sky
248,Vestmanna,62.1564,-7.1664,38.32,93,100,17.27,FO,2022-03-25 19:35:56,mist
249,Esil,51.9556,66.4042,30.67,87,100,5.44,KZ,2022-03-25 19:38:13,overcast clouds
250,Saint George,37.1041,-113.5841,83.62,15,0,4.61,US,2022-03-25 19:35:51,clear sky
251,Zletovo,41.9886,22.2361,45.61,58,0,9.51,MK,2022-03-25 19:38:14,clear sky
252,Axim,4.8699,-2.2405,82.11,83,99,8.39,GH,2022-03-25 19:38:14,overcast clouds
253,Mahabad,36.7631,45.7222,36.86,70,99,10.11,IR,2022-03-25 19:38:15,overcast clouds
254,Aksay,47.26,39.87,39.42,65,81,4.0,RU,2022-03-25 19:38:15,broken clouds
255,Dargaville,-35.9333,173.8833,66.61,69,87,11.79,NZ,2022-03-25 19:38:16,overcast clouds
256,Sheridan,44.8333,-106.9173,52.18,28,0,12.66,US,2022-03-25 19:38:16,clear sky
257,Faya,18.3851,42.4509,64.51,51,0,2.24,SA,2022-03-25 19:38:17,clear sky
258,Port Hardy,50.6996,-127.4199,46.58,76,100,12.66,CA,2022-03-25 19:38:18,light intensity shower rain
259,Zhuji,29.7188,120.2423,58.32,97,100,2.84,CN,2022-03-25 19:38:19,overcast clouds
260,Olga,43.7444,135.2892,37.58,98,100,1.95,RU,2022-03-25 19:38:19,moderate rain
261,Vanimo,-2.6741,141.3028,77.27,88,100,5.3,PG,2022-03-25 19:38:20,heavy intensity rain
262,Bay Roberts,47.5999,-53.2648,35.65,70,100,4.0,CA,2022-03-25 19:38:20,overcast clouds
263,Alofi,-19.0595,-169.9187,80.49,89,90,6.91,NU,2022-03-25 19:38:21,overcast clouds
264,Mugur-Aksy,50.35,90.5,-3.53,80,30,6.89,RU,2022-03-25 19:38:22,scattered clouds
265,Springbok,-29.6643,17.8865,61.93,54,0,1.81,ZA,2022-03-25 19:38:23,clear sky
266,Morondava,-20.2833,44.2833,81.55,80,52,6.8,MG,2022-03-25 19:38:23,broken clouds
267,Ashukino,56.16,37.95,40.96,99,100,7.56,RU,2022-03-25 19:38:26,overcast clouds
268,General Roca,-39.0333,-67.5833,73.81,20,4,4.92,AR,2022-03-25 19:38:27,clear sky
269,Ketchikan,55.3422,-131.6461,42.78,87,100,8.05,US,2022-03-25 19:35:20,light rain
270,Ukiah,39.1502,-123.2078,78.44,39,0,3.0,US,2022-03-25 19:38:30,clear sky
271,Les Cayes,18.2,-73.75,82.04,60,100,13.76,HT,2022-03-25 19:38:30,overcast clouds
272,Roebourne,-20.7833,117.1333,83.53,71,65,10.07,AU,2022-03-25 19:38:33,broken clouds
273,Batagay,67.6333,134.6333,-17.3,100,85,0.94,RU,2022-03-25 19:38:34,overcast clouds
274,Trincomalee,8.5711,81.2335,79.54,84,9,7.81,LK,2022-03-25 19:39:35,clear sky
275,Kuzino,57.0224,59.4412,7.88,96,5,1.88,RU,2022-03-25 19:39:36,clear sky
276,Suriapet,17.15,79.6167,79.34,69,28,9.51,IN,2022-03-25 19:39:39,scattered clouds
277,Luganville,-15.5333,167.1667,78.73,86,100,2.98,VU,2022-03-25 19:39:39,overcast clouds
278,Lompoc,34.6391,-120.4579,79.02,81,0,8.05,US,2022-03-25 19:39:40,clear sky
279,Weiser,44.251,-116.9693,64.87,43,100,3.67,US,2022-03-25 19:39:42,overcast clouds
280,Villa Bruzual,9.3328,-69.1208,91.9,38,98,6.2,VE,2022-03-25 19:39:44,overcast clouds
281,Gopalpur,19.2667,84.9167,78.42,87,45,17.22,IN,2022-03-25 19:39:45,scattered clouds
282,Kaitangata,-46.2817,169.8464,55.83,85,63,7.45,NZ,2022-03-25 19:39:46,broken clouds
283,Lata,40.1629,-8.3327,55.74,73,96,4.65,PT,2022-03-25 19:39:47,overcast clouds
284,Chengde,40.9725,117.9361,36.97,51,46,3.94,CN,2022-03-25 19:38:51,scattered clouds
285,Amalapuram,16.5833,82.0167,76.15,94,35,2.04,IN,2022-03-25 19:39:48,scattered clouds
286,Port Hedland,-20.3167,118.5667,80.65,78,62,4.61,AU,2022-03-25 19:39:48,broken clouds
287,Westport,41.1415,-73.3579,59.43,60,100,11.5,US,2022-03-25 19:39:49,overcast clouds
288,Tocopilla,-22.092,-70.1979,70.52,66,22,6.29,CL,2022-03-25 19:39:50,few clouds
289,Ostrovnoy,68.0531,39.5131,17.33,95,100,2.3,RU,2022-03-25 19:39:53,overcast clouds
290,Ostersund,63.1792,14.6357,35.62,69,40,35.68,SE,2022-03-25 19:39:55,scattered clouds
291,Nantucket,41.2835,-70.0995,48.34,84,0,11.5,US,2022-03-25 19:39:55,clear sky
292,Cayenne,4.9333,-52.3333,83.08,1,75,12.66,GF,2022-03-25 19:36:38,broken clouds
293,Katsuura,35.1333,140.3,60.19,78,100,21.83,JP,2022-03-25 19:39:56,overcast clouds
294,Mogoytuy,51.2833,114.9167,18.19,63,94,13.09,RU,2022-03-25 19:39:57,overcast clouds
295,Redlands,34.0556,-117.1825,90.93,22,40,1.01,US,2022-03-25 19:39:58,scattered clouds
296,Erdenet,49.0333,104.0833,16.34,49,1,5.08,MN,2022-03-25 19:40:00,clear sky
297,Tatarsk,55.219,75.9828,30.29,96,100,19.08,RU,2022-03-25 19:40:02,light snow
298,Bontang,0.1333,117.5,76.46,88,93,4.16,ID,2022-03-25 19:40:03,overcast clouds
299,Pedro Ii,-4.4247,-41.4586,75.67,87,72,1.48,BR,2022-03-25 19:40:04,moderate rain
300,Sao Joao Do Piaui,-8.3581,-42.2467,89.62,47,99,4.32,BR,2022-03-25 19:40:05,overcast clouds
301,Turayf,31.6725,38.6637,43.05,81,0,11.5,SA,2022-03-25 19:40:07,clear sky
302,Ayorou,14.7308,0.9174,90.5,12,35,8.32,NE,2022-03-25 19:40:08,scattered clouds
303,Zachepylivka,49.1939,35.2394,42.73,45,5,2.93,UA,2022-03-25 19:40:09,clear sky
304,Aklavik,68.2191,-135.0107,1.76,88,56,15.95,CA,2022-03-25 19:40:11,broken clouds
305,Asino,56.9979,86.1452,26.67,91,100,17.96,RU,2022-03-25 19:40:12,overcast clouds
306,Newport,51.5877,-2.9984,54.14,65,4,8.03,GB,2022-03-25 19:36:05,clear sky
307,Praya,14.9215,-23.5087,72.14,60,20,20.71,CV,2022-03-25 19:40:15,few clouds
308,Goderich,43.7501,-81.7165,37.9,87,100,10.36,CA,2022-03-25 19:40:15,overcast clouds
309,Bosaso,11.2842,49.1816,75.97,72,0,1.36,SO,2022-03-25 19:40:16,clear sky
310,Noumea,-22.2763,166.4572,80.01,99,94,8.66,NC,2022-03-25 19:40:17,overcast clouds
311,Belyy Yar,53.6039,91.3903,22.89,67,0,4.47,RU,2022-03-25 19:40:18,clear sky
312,Erdaojiang,41.7764,126.0319,35.69,99,100,3.22,CN,2022-03-25 19:40:19,light rain
313,Kapiri Mposhi,-13.9652,28.6809,65.77,93,100,3.94,ZM,2022-03-25 19:40:26,overcast clouds
314,Yeppoon,-23.1333,150.7333,69.58,81,90,8.59,AU,2022-03-25 19:40:27,overcast clouds
315,Shingu,33.7333,135.9833,57.9,79,100,6.22,JP,2022-03-25 19:40:28,light rain
316,Kasongo-Lunda,-6.4667,16.8167,72.09,94,55,0.69,CD,2022-03-25 19:40:28,light rain
317,Luwuk,-0.9516,122.7875,77.76,78,100,3.0,ID,2022-03-25 19:40:29,overcast clouds
318,Camana,-16.6228,-72.7111,73.44,70,6,6.96,PE,2022-03-25 19:40:30,clear sky
319,Damabalas,7.0156,124.5142,74.28,93,67,0.18,PH,2022-03-25 19:40:30,broken clouds
320,Pasni,25.2631,63.471,78.85,58,0,2.21,PK,2022-03-25 19:47:45,clear sky
321,Mount Pleasant,32.7941,-79.8626,73.09,57,75,14.97,US,2022-03-25 19:47:45,broken clouds
322,Saskylakh,71.9167,114.0833,-16.55,100,100,2.21,RU,2022-03-25 19:47:46,overcast clouds
323,Pondicherry,11.93,79.83,81.27,81,1,9.22,IN,2022-03-25 19:47:47,clear sky
324,Kostyantynivka,48.5277,37.7069,39.9,57,0,3.98,UA,2022-03-25 19:47:48,clear sky
325,Cooma,-36.2333,149.1333,47.97,100,100,0.0,AU,2022-03-25 19:47:48,overcast clouds
326,Antofagasta,-23.65,-70.4,67.28,70,4,7.11,CL,2022-03-25 19:47:49,clear sky
327,Zeya,53.75,127.2667,17.89,89,100,4.92,RU,2022-03-25 19:47:50,overcast clouds
328,Naze,28.3667,129.4833,67.12,96,100,22.5,JP,2022-03-25 19:47:50,light rain
329,Pacific Grove,36.6177,-121.9166,66.2,85,75,8.01,US,2022-03-25 19:47:51,haze
330,Jacareacanga,-6.2222,-57.7528,85.91,67,98,2.28,BR,2022-03-25 19:47:52,overcast clouds
331,Elizabeth City,36.2946,-76.2511,68.05,47,0,6.91,US,2022-03-25 19:46:25,clear sky
332,Naliya,23.2667,68.8333,77.67,63,0,7.67,IN,2022-03-25 19:47:53,clear sky
333,Morgan City,29.6994,-91.2068,75.0,28,0,12.66,US,2022-03-25 19:47:53,clear sky
334,Plettenberg Bay,-34.0527,23.3716,62.28,84,97,8.68,ZA,2022-03-25 19:47:54,overcast clouds
335,Flin Flon,54.7682,-101.865,8.44,43,0,18.41,CA,2022-03-25 19:47:54,clear sky
336,Belgrade,44.804,20.4651,53.26,41,0,3.44,RS,2022-03-25 19:47:55,clear sky
337,Kiama,-34.6833,150.8667,66.99,94,66,1.01,AU,2022-03-25 19:47:55,light rain
338,Hamilton,39.1834,-84.5333,46.24,72,100,14.97,US,2022-03-25 19:46:36,overcast clouds
339,Coripata,-16.3,-67.6,69.13,93,98,3.69,BO,2022-03-25 19:47:57,overcast clouds
340,Fairbanks,64.8378,-147.7164,35.94,53,40,5.75,US,2022-03-25 19:47:57,scattered clouds
341,Bonthe,7.5264,-12.505,79.16,85,0,9.57,SL,2022-03-25 19:47:58,light rain
342,Naryan-Mar,67.6713,53.087,20.08,89,100,33.24,RU,2022-03-25 19:48:00,overcast clouds
343,Ekibastuz,51.6667,75.3667,26.6,86,52,14.79,KZ,2022-03-25 19:48:01,broken clouds
344,Puteyets,65.1716,57.091,20.98,80,100,16.78,RU,2022-03-25 19:48:02,overcast clouds
345,Ancud,-41.8697,-73.8203,67.23,70,96,4.54,CL,2022-03-25 19:48:03,overcast clouds
346,Xiaolingwei,32.0333,118.85,53.58,92,86,12.21,CN,2022-03-25 19:48:06,overcast clouds
347,Yumen,40.2833,97.2,34.68,29,0,7.43,CN,2022-03-25 19:48:06,clear sky
348,Jalu,29.0331,21.5482,58.42,30,0,3.58,LY,2022-03-25 19:48:07,clear sky
349,Eureka,40.8021,-124.1637,67.68,71,32,5.99,US,2022-03-25 19:48:08,scattered clouds
350,Phimai,15.2232,102.4947,83.82,67,16,6.13,TH,2022-03-25 19:48:08,few clouds
351,Pauini,-7.7136,-66.9764,80.98,93,89,2.24,BR,2022-03-25 19:48:08,light rain
352,Marechal Floriano,-20.4128,-40.6831,77.25,78,58,2.04,BR,2022-03-25 19:48:09,broken clouds
353,Mazyr,52.0495,29.2456,41.5,77,33,7.52,BY,2022-03-25 19:48:10,scattered clouds
354,Launceston,-41.45,147.1667,51.15,93,5,3.44,AU,2022-03-25 19:48:11,clear sky
355,Faanui,-16.4833,-151.75,82.15,72,64,16.04,PF,2022-03-25 19:48:12,broken clouds
356,Dergachi,51.2328,48.7659,31.24,94,100,2.73,RU,2022-03-25 19:48:52,overcast clouds
357,Firozpur,30.9167,74.6,67.06,27,0,3.71,IN,2022-03-25 19:48:53,clear sky
358,Teano,41.2513,14.0665,51.87,70,8,2.64,IT,2022-03-25 19:48:53,clear sky
359,Beringovskiy,63.05,179.3167,7.47,97,94,3.69,RU,2022-03-25 19:48:54,overcast clouds
360,Namatanai,-3.6667,152.4333,79.25,82,100,4.76,PG,2022-03-25 19:48:54,light rain
361,Canico,32.6333,-16.85,63.01,85,40,8.05,PT,2022-03-25 19:48:55,scattered clouds
362,Yucca Valley,34.1142,-116.4322,84.06,15,80,15.01,US,2022-03-25 19:45:44,broken clouds
363,Rockport,28.0206,-97.0544,82.44,47,0,9.22,US,2022-03-25 19:49:56,haze
364,Araouane,18.9048,-3.5265,88.68,11,92,9.86,ML,2022-03-25 19:49:56,overcast clouds
365,Byron Bay,-28.65,153.6167,66.09,92,85,8.05,AU,2022-03-25 19:49:56,overcast clouds
366,Goure,13.9835,10.2704,78.39,13,15,10.54,NE,2022-03-25 19:49:57,few clouds
367,Asau,46.4333,26.4,34.95,82,8,3.8,RO,2022-03-25 19:49:57,clear sky
368,Kailua,21.4022,-157.7394,74.48,88,70,5.01,US,2022-03-25 19:49:58,light rain
369,Mackenzie,55.2999,-123.1698,30.42,86,100,2.3,CA,2022-03-25 19:49:58,overcast clouds
370,Bukene,-4.2333,32.8833,67.68,81,11,2.51,TZ,2022-03-25 19:49:59,few clouds
371,Vila Franca Do Campo,37.7167,-25.4333,61.21,90,100,24.18,PT,2022-03-25 19:49:48,overcast clouds
372,Pangody,65.85,74.4859,12.16,93,100,24.96,RU,2022-03-25 19:49:59,overcast clouds
373,Belize,17.25,-88.75,79.12,69,100,4.36,BZ,2022-03-25 19:50:00,overcast clouds
374,Ryotsu,38.0833,138.4333,50.02,70,100,4.09,JP,2022-03-25 19:50:00,overcast clouds
375,Maceio,-9.6658,-35.7353,83.64,65,75,12.66,BR,2022-03-25 19:50:01,light rain
376,Ranong,9.9658,98.6348,77.83,87,0,2.44,TH,2022-03-25 19:50:02,clear sky
377,La Ronge,55.1001,-105.2842,8.85,40,0,10.36,CA,2022-03-25 19:50:03,clear sky
378,Prince Rupert,54.3161,-130.3201,44.69,81,100,23.02,CA,2022-03-25 19:45:40,light rain
379,Constitucion,-35.3333,-72.4167,65.01,55,2,6.2,CL,2022-03-25 19:50:04,clear sky
380,Linxia,35.6003,103.2064,37.58,56,100,2.1,CN,2022-03-25 19:50:05,overcast clouds
381,Samarai,-10.6167,150.6667,83.03,78,100,12.35,PG,2022-03-25 19:50:06,overcast clouds
382,Grenaa,56.4158,10.8783,50.22,84,7,5.01,DK,2022-03-25 19:50:06,clear sky
383,Tual,-5.6667,132.75,80.35,82,100,20.56,ID,2022-03-25 19:50:07,light rain
384,Ponta Delgada,37.7333,-25.6667,61.52,82,75,24.16,PT,2022-03-25 19:50:07,broken clouds
385,Gazanjyk,39.2446,55.5154,45.52,82,0,12.3,TM,2022-03-25 19:50:08,clear sky
386,Sao Joao Da Barra,-21.6403,-41.0511,86.09,86,45,15.52,BR,2022-03-25 19:50:08,scattered clouds
387,Quepos,9.4236,-84.1652,84.38,70,100,5.7,CR,2022-03-25 19:50:09,overcast clouds
388,Ishigaki,24.3448,124.1572,77.13,100,75,12.66,JP,2022-03-25 19:50:10,broken clouds
389,Gimli,50.6336,-96.9907,17.62,67,100,17.27,CA,2022-03-25 19:50:10,overcast clouds
390,Nizwa,22.9333,57.5333,77.04,16,0,3.6,OM,2022-03-25 19:50:10,clear sky
391,Sakete,6.7362,2.6587,81.95,76,51,8.61,BJ,2022-03-25 19:50:11,broken clouds
392,Saint-Joseph,-21.3667,55.6167,77.38,84,11,6.15,RE,2022-03-25 19:50:11,few clouds
393,Hakkari,37.5833,44.1667,24.35,98,100,3.91,TR,2022-03-25 19:50:12,light snow
394,Smardioasa,43.85,25.4333,41.67,74,2,3.58,RO,2022-03-25 19:50:13,clear sky
395,Saint-Paul,-21.0096,55.2707,78.91,86,62,2.82,RE,2022-03-25 19:49:15,broken clouds
396,Hovd,48.0056,91.6419,16.05,48,6,2.86,MN,2022-03-25 19:50:13,clear sky
397,Lhokseumawe,5.1801,97.1507,78.15,87,100,5.23,ID,2022-03-25 19:50:14,overcast clouds
398,Saint-Michel-Des-Saints,46.6834,-73.9159,36.32,99,100,1.54,CA,2022-03-25 19:50:14,overcast clouds
399,Puerto Del Rosario,28.5004,-13.8627,67.75,60,40,9.22,ES,2022-03-25 19:50:15,scattered clouds
400,Taut,46.2833,21.9167,44.94,63,0,3.49,RO,2022-03-25 19:50:15,clear sky
401,Namwala,-15.7504,26.4384,68.4,91,100,1.25,ZM,2022-03-25 19:50:16,overcast clouds
402,Manggar,-2.8833,108.2667,79.84,78,89,1.39,ID,2022-03-25 19:50:17,overcast clouds
403,Qingyuan,23.7,113.0333,73.38,97,99,0.65,CN,2022-03-25 19:50:18,overcast clouds
404,Isangel,-19.55,169.2667,78.4,78,98,9.55,VU,2022-03-25 19:50:18,overcast clouds
405,Vestmannaeyjar,63.4427,-20.2734,39.78,84,100,36.55,IS,2022-03-25 19:50:19,overcast clouds
406,Manacor,39.5696,3.2096,56.52,87,100,15.86,ES,2022-03-25 19:48:49,overcast clouds
407,Maple Creek,49.9168,-109.4848,44.65,26,100,5.75,CA,2022-03-25 19:50:19,overcast clouds
408,Tailai,46.3833,123.4,31.71,82,2,6.29,CN,2022-03-25 19:50:20,clear sky
409,Seymchan,62.8833,152.4333,-3.21,96,100,3.6,RU,2022-03-25 19:50:20,overcast clouds
410,Angoram,-4.0625,144.0661,72.41,99,100,1.43,PG,2022-03-25 19:51:22,overcast clouds
411,Lebyazhye,55.2689,66.4947,13.5,87,5,9.95,RU,2022-03-25 19:51:22,clear sky
412,Kafanchan,9.5833,8.3,80.02,16,41,7.11,NG,2022-03-25 19:51:23,scattered clouds
413,Bulaevo,54.9056,70.4439,21.0,85,76,12.35,KZ,2022-03-25 19:51:24,broken clouds
414,San Carlos De Bariloche,-41.1456,-71.3082,69.55,24,0,8.05,AR,2022-03-25 19:50:29,clear sky
415,Nehe,48.4833,124.8333,27.95,92,95,3.67,CN,2022-03-25 19:51:25,overcast clouds
416,Pismo Beach,35.1428,-120.6413,78.64,62,40,0.0,US,2022-03-25 19:48:34,scattered clouds
417,Saint-Honore,48.5334,-71.0824,32.25,94,100,5.75,CA,2022-03-25 19:51:25,snow
418,Griffith,41.5284,-87.4237,44.31,84,100,28.77,US,2022-03-25 19:51:26,overcast clouds
419,Kakching,24.4833,93.9833,61.23,92,94,1.66,IN,2022-03-25 19:51:26,overcast clouds
420,Touros,-5.1989,-35.4608,81.93,76,94,13.0,BR,2022-03-25 19:51:18,overcast clouds
421,Natal,-5.795,-35.2094,84.42,79,40,14.97,BR,2022-03-25 19:51:10,scattered clouds
422,Sonoita,31.85,-112.8333,88.68,6,100,3.22,MX,2022-03-25 19:51:27,overcast clouds
423,Rorvik,64.8621,11.2373,41.11,75,75,29.93,NO,2022-03-25 19:51:27,broken clouds
424,Avera,33.194,-82.5271,67.51,41,53,17.25,US,2022-03-25 19:51:28,broken clouds
425,Vardo,70.3705,31.1107,25.56,60,100,15.75,NO,2022-03-25 19:51:28,overcast clouds
426,Kichera,55.9375,110.0997,9.01,77,100,4.21,RU,2022-03-25 19:51:29,overcast clouds
427,Poceirao,38.831,-8.7937,62.28,78,96,7.94,PT,2022-03-25 19:51:29,overcast clouds
428,Washougal,45.5826,-122.3534,61.97,64,75,8.05,US,2022-03-25 19:51:12,broken clouds
429,Dalbandin,28.8947,64.4101,74.25,11,0,4.38,PK,2022-03-25 19:51:30,clear sky
430,Kosh-Agach,50.0,88.6667,-7.33,84,20,3.42,RU,2022-03-25 19:51:30,few clouds
431,Rabo De Peixe,37.8,-25.5833,60.31,82,75,24.16,PT,2022-03-25 19:51:31,broken clouds
432,Ordzhonikidze,52.4411,61.7408,19.47,95,15,10.27,KZ,2022-03-25 19:51:31,few clouds
433,Beidao,34.5686,105.8933,47.14,52,100,1.59,CN,2022-03-25 19:51:32,overcast clouds
434,Springdale,36.1867,-94.1288,60.71,49,20,10.36,US,2022-03-25 19:49:54,few clouds
435,Iroquois Falls,48.7669,-80.6831,33.82,94,100,4.5,CA,2022-03-25 19:51:32,overcast clouds
436,Benjamin Constant,-4.3831,-70.0311,86.13,74,40,8.05,BR,2022-03-25 19:51:33,scattered clouds
437,Yaan,7.3833,8.5667,90.43,12,100,3.8,NG,2022-03-25 19:51:33,overcast clouds
438,Bhadasar,28.2833,74.3167,81.32,10,0,6.4,IN,2022-03-25 19:51:34,clear sky
439,Mandalgovi,45.7625,106.2708,23.83,25,100,7.43,MN,2022-03-25 19:51:34,overcast clouds
440,Tiquicheo,18.8833,-100.7333,99.82,6,17,4.88,MX,2022-03-25 19:51:35,few clouds
441,East London,-33.0153,27.9116,64.22,88,90,2.8,ZA,2022-03-25 19:51:35,light rain
442,Basco,20.4487,121.9702,80.74,89,0,15.55,PH,2022-03-25 19:51:35,clear sky
443,Sioux Lookout,50.1001,-91.917,21.27,86,100,17.27,CA,2022-03-25 19:51:36,overcast clouds
444,Dolores,-36.3132,-57.6792,64.06,73,87,7.4,AR,2022-03-25 19:51:36,overcast clouds
445,Champerico,14.3,-91.9167,95.54,57,98,13.02,GT,2022-03-25 19:51:37,overcast clouds
446,Kutum,14.2,24.6667,65.25,13,96,15.28,SD,2022-03-25 19:51:37,overcast clouds
447,Ormara,25.2088,64.6357,78.01,72,3,9.4,PK,2022-03-25 19:51:38,clear sky
448,Cairns,-16.9167,145.7667,77.07,91,100,2.3,AU,2022-03-25 19:47:30,overcast clouds
449,Karakol,42.4907,78.3936,26.35,66,63,4.92,KG,2022-03-25 19:51:38,broken clouds
450,Lima,-12.0432,-77.0282,75.38,83,0,8.05,PE,2022-03-25 19:49:02,clear sky
451,Torbay,47.6666,-52.7314,34.75,75,100,5.75,CA,2022-03-25 19:51:39,overcast clouds
452,Baglan,36.1307,68.7083,64.74,31,34,2.82,AF,2022-03-25 19:51:39,scattered clouds
453,Praia Da Vitoria,38.7333,-27.0667,61.05,94,75,32.93,PT,2022-03-25 19:51:40,light intensity drizzle
454,Labuan,5.2767,115.2417,79.16,94,20,2.3,MY,2022-03-25 19:51:40,few clouds
455,Juba,4.8517,31.5825,79.54,56,80,7.02,SS,2022-03-25 19:51:41,broken clouds
456,Brigantine,39.4101,-74.3646,62.04,41,75,13.8,US,2022-03-25 19:51:41,broken clouds
457,Hamina,60.5697,27.1979,40.28,83,100,16.33,FI,2022-03-25 19:52:42,overcast clouds
458,Syumsi,57.1111,51.6149,23.47,82,31,6.51,RU,2022-03-25 19:52:42,scattered clouds
459,Chara,56.9064,118.2631,7.16,85,100,2.75,RU,2022-03-25 19:52:43,overcast clouds
460,Den Helder,52.9599,4.7593,49.01,57,40,5.99,NL,2022-03-25 19:51:23,scattered clouds
461,San Cristobal,7.7669,-72.225,80.78,42,91,5.26,VE,2022-03-25 19:52:43,overcast clouds
462,Kloulklubed,7.0419,134.2556,79.63,80,100,10.71,PW,2022-03-25 19:52:44,overcast clouds
463,Melfi,40.9965,15.6514,46.49,74,55,4.79,IT,2022-03-25 19:49:54,broken clouds
464,Paamiut,61.994,-49.6678,23.38,74,36,12.75,GL,2022-03-25 19:52:44,scattered clouds
465,Zhoukou,33.6333,114.6333,43.34,82,95,6.13,CN,2022-03-25 19:52:45,overcast clouds
466,Mangrol,21.1167,70.1167,77.13,72,22,9.33,IN,2022-03-25 19:52:45,few clouds
467,Dunedin,-45.8742,170.5036,59.81,72,48,7.0,NZ,2022-03-25 19:52:46,scattered clouds
468,Ipu,-4.3222,-40.7108,78.44,91,32,4.14,BR,2022-03-25 19:52:46,scattered clouds
469,Zherdevka,51.8486,41.4606,31.71,93,100,5.95,RU,2022-03-25 19:51:22,overcast clouds
470,Gboko,7.3179,8.9951,91.72,11,100,3.22,NG,2022-03-25 19:52:47,overcast clouds
471,Mizan Teferi,6.9833,35.5833,63.73,85,100,4.34,ET,2022-03-25 19:52:48,light rain
472,Kuhdasht,33.535,47.6061,43.93,41,28,5.28,IR,2022-03-25 19:52:48,scattered clouds
473,Cockburn Town,21.4612,-71.1419,78.1,71,46,18.9,TC,2022-03-25 19:50:08,scattered clouds
474,Jizan,17.3333,42.6667,79.74,58,0,5.95,SA,2022-03-25 19:52:49,clear sky
475,Nakonde,-9.3421,32.745,60.66,93,98,3.38,ZM,2022-03-25 19:52:49,overcast clouds
476,Maldonado,-34.6667,-54.9167,60.19,72,86,11.25,UY,2022-03-25 19:52:50,overcast clouds
477,Cascais,38.6979,-9.4215,62.94,67,20,14.0,PT,2022-03-25 19:52:50,few clouds
478,Peniche,39.3558,-9.3811,60.12,79,99,9.6,PT,2022-03-25 19:52:51,overcast clouds
479,Issoire,45.55,3.25,54.66,70,36,2.53,FR,2022-03-25 19:52:51,scattered clouds
480,Panalingaan,8.7842,117.4231,78.82,85,3,3.04,PH,2022-03-25 19:52:52,clear sky
481,Jardim,-21.4803,-56.1381,74.61,74,96,7.7,BR,2022-03-25 19:52:52,overcast clouds
482,Salta,-24.7859,-65.4117,73.99,35,20,8.05,AR,2022-03-25 19:48:59,few clouds
483,Alice Springs,-23.7,133.8833,69.22,32,100,5.75,AU,2022-03-25 19:52:53,overcast clouds
484,Ciro Marina,39.3732,17.126,56.68,65,33,5.26,IT,2022-03-25 19:52:53,scattered clouds
485,Cabedelo,-6.9811,-34.8339,86.67,75,100,12.55,BR,2022-03-25 19:52:54,overcast clouds
486,Windsor,42.3001,-83.0165,47.21,74,100,13.8,CA,2022-03-25 19:50:19,overcast clouds
487,Kulhudhuffushi,6.6221,73.07,81.48,69,10,2.95,MV,2022-03-25 19:52:54,clear sky
488,Sibolga,1.7427,98.7792,75.69,85,0,2.51,ID,2022-03-25 19:52:55,clear sky
489,Walvis Bay,-22.9575,14.5053,61.75,88,33,4.61,NA,2022-03-25 19:52:55,scattered clouds
490,Takaka,-40.85,172.8,60.62,86,36,2.08,NZ,2022-03-25 19:52:56,scattered clouds
491,Kidal,18.4411,1.4078,91.36,10,95,9.44,ML,2022-03-25 19:52:56,overcast clouds
492,Shangrao,28.4532,117.9686,59.74,96,100,7.25,CN,2022-03-25 19:52:57,overcast clouds
493,Lakselv,70.0513,24.9718,21.02,68,0,6.91,NO,2022-03-25 19:52:57,clear sky
494,Kandrian,-6.2167,149.55,77.23,89,100,9.82,PG,2022-03-25 19:52:58,overcast clouds
495,Sinnamary,5.3833,-52.95,79.16,85,55,14.05,GF,2022-03-25 19:52:58,broken clouds
496,Partizanskoye,55.5006,94.39,12.15,83,98,7.02,RU,2022-03-25 19:52:58,overcast clouds
497,Itaituba,-4.2761,-55.9836,89.76,66,40,5.75,BR,2022-03-25 19:52:59,scattered clouds
498,College,64.8569,-147.8028,35.92,53,75,5.75,US,2022-03-25 19:48:51,broken clouds
499,Tutin,42.9903,20.3314,35.6,78,0,3.27,RS,2022-03-25 19:53:00,clear sky
500,Kumluca,36.3703,30.2869,55.8,44,1,6.76,TR,2022-03-25 19:53:00,clear sky
501,Alugan,12.2188,125.4808,79.32,83,59,9.66,PH,2022-03-25 19:53:00,broken clouds
502,Ilebo,-4.3167,20.5833,78.33,74,98,3.2,CD,2022-03-25 19:53:01,overcast clouds
503,Colac,-38.3333,143.5833,57.16,92,37,4.5,AU,2022-03-25 19:51:37,scattered clouds
504,Bambanglipuro,-7.95,110.2833,76.64,90,100,3.4,ID,2022-03-25 19:54:02,overcast clouds
505,Copiapo,-27.3667,-70.3333,65.89,29,0,6.76,CL,2022-03-25 19:51:59,clear sky
506,Kigoma,-4.8769,29.6267,74.5,80,39,1.97,TZ,2022-03-25 19:54:02,light rain
507,Puerto Leguizamo,-0.1934,-74.7819,81.66,84,100,3.06,CO,2022-03-25 19:54:03,light rain
508,Pingzhuang,42.0372,119.2889,35.98,39,13,5.03,CN,2022-03-25 19:54:03,few clouds
509,Xiamen,24.4798,118.0819,68.25,100,100,2.24,CN,2022-03-25 19:54:04,mist
510,Victor Harbor,-35.5667,138.6167,55.99,87,0,6.13,AU,2022-03-25 19:54:04,clear sky
511,Zhenhai,24.2582,118.0905,67.08,100,100,7.49,CN,2022-03-25 19:54:05,overcast clouds
512,Aguai,-22.0594,-46.9786,88.9,76,100,2.91,BR,2022-03-25 19:54:05,overcast clouds
513,Chartres,48.4167,1.5,56.71,60,0,8.37,FR,2022-03-25 19:54:06,clear sky
514,Camopi,3.1655,-52.3158,77.77,96,96,4.68,GF,2022-03-25 19:54:06,overcast clouds
515,Zhangye,38.9342,100.4517,37.98,50,27,2.48,CN,2022-03-25 19:54:07,scattered clouds
516,Port Macquarie,-31.4333,152.9167,64.29,100,75,3.44,AU,2022-03-25 19:54:07,light rain
517,Itoman,26.1247,127.6694,74.17,96,100,21.85,JP,2022-03-25 19:54:08,mist
518,Keetmanshoop,-26.5833,18.1333,74.32,33,0,5.75,NA,2022-03-25 19:54:08,clear sky
519,Opoczno,51.3757,20.2783,41.92,55,1,6.13,PL,2022-03-25 19:54:09,clear sky
520,Sabang,5.8933,95.3214,82.54,73,35,3.53,ID,2022-03-25 19:54:09,scattered clouds
521,Charleston,32.7766,-79.9309,73.09,56,75,19.57,US,2022-03-25 19:52:34,broken clouds
522,Kilindoni,-7.9139,39.6668,83.21,77,5,10.49,TZ,2022-03-25 19:54:10,clear sky
523,Grand Gaube,-20.0064,57.6608,79.2,86,3,1.99,MU,2022-03-25 19:54:10,clear sky
524,Haimen,23.1935,116.6142,67.89,97,62,6.02,CN,2022-03-25 19:54:11,broken clouds
525,Tommot,58.9564,126.2925,-2.7,99,97,1.99,RU,2022-03-25 19:54:11,overcast clouds
526,Talkha,31.0539,31.3779,47.25,73,0,5.14,EG,2022-03-25 19:54:12,clear sky
527,Svetlyy,54.675,20.1347,44.96,72,86,16.33,RU,2022-03-25 19:54:12,overcast clouds
528,Hanmer Springs,-42.5167,172.8167,53.17,69,0,1.19,NZ,2022-03-25 19:54:13,clear sky
529,Kimbe,-5.5502,150.1429,75.29,93,100,2.21,PG,2022-03-25 19:54:13,overcast clouds
530,Lewisporte,49.2499,-55.0482,37.11,72,100,4.76,CA,2022-03-25 19:54:14,overcast clouds
531,Inhambane,-23.865,35.3833,80.58,94,40,5.01,MZ,2022-03-25 19:54:14,scattered clouds
532,Coxim,-18.5067,-54.76,80.92,82,99,7.85,BR,2022-03-25 19:54:14,overcast clouds
533,Pacifica,37.6138,-122.4869,69.62,71,40,12.66,US,2022-03-25 19:54:15,scattered clouds
534,Bayir,37.2687,28.2167,43.32,59,0,1.81,TR,2022-03-25 19:54:15,clear sky
535,Urdoma,61.7533,48.5442,21.42,83,100,8.14,RU,2022-03-25 19:54:16,overcast clouds
536,Mareeba,-17.0,145.4333,72.45,91,100,1.03,AU,2022-03-25 19:54:16,light rain
537,Portland,45.5234,-122.6762,62.11,60,75,8.05,US,2022-03-25 19:51:10,broken clouds
538,San Juan,-31.5375,-68.5364,76.35,13,0,4.81,AR,2022-03-25 19:54:17,clear sky
539,Damietta,31.4165,31.8133,57.09,57,0,11.18,EG,2022-03-25 19:54:17,clear sky
540,Shakiso,5.75,38.9167,59.77,92,96,2.15,ET,2022-03-25 19:54:18,overcast clouds
541,Asfi,32.2994,-9.2372,58.69,76,3,7.4,MA,2022-03-25 19:54:18,clear sky
542,Huarmey,-10.0681,-78.1522,75.88,71,87,11.18,PE,2022-03-25 19:53:37,overcast clouds
543,Dashitou,43.3067,128.5114,34.02,94,100,1.54,CN,2022-03-25 19:54:19,light snow
544,Impfondo,1.6381,18.0667,75.43,77,89,1.74,CG,2022-03-25 19:54:19,overcast clouds
545,Zhigansk,66.7697,123.3711,3.67,97,100,7.05,RU,2022-03-25 19:54:20,overcast clouds
546,Novo Aripuana,-5.1206,-60.3797,84.92,77,82,1.28,BR,2022-03-25 19:54:20,broken clouds
547,Yuli,9.6989,10.2744,86.95,13,2,7.65,NG,2022-03-25 19:54:21,clear sky
548,Karasjok,69.4719,25.5112,18.32,80,100,15.26,NO,2022-03-25 19:54:21,overcast clouds
549,Adrar,20.5022,-10.0711,73.9,17,52,6.69,MR,2022-03-25 19:54:21,broken clouds
550,Bardiyah,31.7561,25.0865,55.94,73,0,10.51,LY,2022-03-25 19:54:22,clear sky
551,Keti Bandar,24.1447,67.4497,77.74,74,0,10.07,PK,2022-03-25 19:55:23,clear sky
552,Udachnyy,66.4167,112.4,-10.44,100,100,4.63,RU,2022-03-25 19:55:23,overcast clouds
553,Manzhouli,49.6,117.4333,20.14,81,98,6.46,CN,2022-03-25 19:55:23,overcast clouds
554,Superior,46.7208,-92.1041,33.96,64,100,21.85,US,2022-03-25 19:55:24,overcast clouds
555,Digby,44.6169,-65.7655,47.35,98,100,17.25,CA,2022-03-25 19:55:25,light rain
556,Uberaba,-19.7483,-47.9319,88.38,40,0,5.75,BR,2022-03-25 19:55:25,clear sky
557,Xinyu,27.8043,114.9334,59.92,91,100,4.76,CN,2022-03-25 19:55:26,overcast clouds
558,Jiaocheng,24.6774,116.1389,69.17,99,85,2.53,CN,2022-03-25 19:55:26,overcast clouds
559,Gayny,60.3071,54.3241,16.27,88,100,4.14,RU,2022-03-25 19:55:27,overcast clouds
560,Saint-Augustin,51.226,-58.6502,30.0,89,100,10.65,CA,2022-03-25 19:55:27,overcast clouds
561,Milkovo,54.7167,158.6167,3.99,90,57,2.57,RU,2022-03-25 19:55:27,broken clouds
562,Quatre Cocos,-20.2078,57.7625,78.91,82,18,9.04,MU,2022-03-25 19:55:28,light rain
563,Maumere,-8.6199,122.2111,79.14,78,83,3.02,ID,2022-03-25 19:55:28,broken clouds
564,Port Lincoln,-34.7333,135.8667,61.16,80,0,11.21,AU,2022-03-25 19:55:29,clear sky
565,Evensk,61.95,159.2333,4.42,81,100,6.58,RU,2022-03-25 19:55:29,overcast clouds
566,Beloha,-25.1667,45.05,73.11,94,80,3.29,MG,2022-03-25 19:55:30,broken clouds
567,Rehoboth,-23.3167,17.0833,70.05,57,91,6.67,NA,2022-03-25 19:55:30,overcast clouds
568,Kaka,37.3482,59.6143,51.22,67,94,1.79,TM,2022-03-25 19:55:31,overcast clouds
569,Shumskiy,54.8318,99.1328,10.78,94,27,3.85,RU,2022-03-25 19:55:31,scattered clouds
570,Nivala,63.9167,24.9667,30.69,97,100,10.04,FI,2022-03-25 19:55:32,light snow
571,Garissa,-0.4536,39.6401,84.61,60,35,18.95,KE,2022-03-25 19:55:32,scattered clouds
572,Gravdal,68.1214,13.5031,35.49,80,75,25.32,NO,2022-03-25 19:55:33,light snow
573,Tsumeb,-19.2333,17.7167,66.61,66,0,5.64,NA,2022-03-25 19:55:33,clear sky
574,Ornskoldsvik,63.2909,18.7153,38.35,60,20,26.46,SE,2022-03-25 19:55:33,squalls
575,Buala,-8.145,159.5921,77.29,89,100,3.11,SB,2022-03-25 19:55:34,moderate rain
576,Djenne,13.9061,-4.5533,91.85,20,12,7.34,ML,2022-03-25 19:55:34,few clouds
577,Xuanwu,32.069,118.8138,53.55,92,84,12.17,CN,2022-03-25 19:55:35,broken clouds
578,Baruun-Urt,46.6806,113.2792,19.96,49,4,9.73,MN,2022-03-25 19:55:35,clear sky
579,Margate,51.3813,1.3862,49.3,81,21,4.0,GB,2022-03-25 19:55:36,few clouds
580,Aktau,43.65,51.2,36.18,94,100,13.53,KZ,2022-03-25 19:55:36,overcast clouds
581,Itarema,-2.9248,-39.9167,81.14,78,21,9.19,BR,2022-03-25 19:55:37,light rain
582,Jaguaquara,-13.5306,-39.9708,76.05,71,73,8.48,BR,2022-03-25 19:55:37,broken clouds
583,Waddan,29.1614,16.139,59.86,26,0,14.14,LY,2022-03-25 19:55:38,clear sky
584,Fukue,32.6881,128.8419,63.77,95,100,42.01,JP,2022-03-25 19:55:38,moderate rain
585,Karatau,43.1667,70.4667,43.86,72,99,7.65,KZ,2022-03-25 19:55:39,overcast clouds
586,Gold Coast,-28.0,153.4333,69.01,94,75,6.91,AU,2022-03-25 19:55:39,broken clouds
587,Coruripe,-10.1256,-36.1756,81.07,75,100,9.26,BR,2022-03-25 19:55:39,overcast clouds
588,Abrau-Dyurso,44.69,37.59,38.66,86,96,6.26,RU,2022-03-25 19:55:40,overcast clouds
589,Cubuk,40.2386,33.0322,36.86,52,40,10.36,TR,2022-03-25 19:55:40,scattered clouds
590,Sukhobezvodnoye,57.0491,44.8891,29.98,93,100,8.66,RU,2022-03-25 19:55:41,overcast clouds
591,Saint-Pierre,-21.3393,55.4781,78.48,81,0,5.75,RE,2022-03-25 19:55:41,clear sky
592,Nhulunbuy,-12.2333,136.7667,77.61,78,100,10.36,AU,2022-03-25 19:55:42,overcast clouds
593,Acapulco,16.8634,-99.8901,86.49,40,68,9.75,MX,2022-03-25 19:55:30,broken clouds
594,Dudinka,69.4058,86.1778,13.62,83,100,15.68,RU,2022-03-25 19:55:42,overcast clouds
595,Taicheng,38.731,113.228,35.69,40,37,5.35,CN,2022-03-25 19:55:43,scattered clouds
596,Kastamonu,41.5,33.6667,27.21,89,6,4.68,TR,2022-03-25 19:56:44,clear sky
597,Camacha,33.0833,-16.3333,58.42,72,20,10.36,PT,2022-03-25 19:56:45,few clouds
598,Teguldet,57.3064,88.1667,25.59,89,100,13.11,RU,2022-03-25 19:56:45,overcast clouds
599,Srednekolymsk,67.45,153.6833,3.13,96,100,13.6,RU,2022-03-25 19:56:45,light snow
600,Nurlat,54.4277,50.8051,30.43,98,100,7.49,RU,2022-03-25 19:56:46,light snow
601,Novozavedennoye,44.2628,43.6381,34.9,93,100,5.44,RU,2022-03-25 19:56:46,overcast clouds
602,Salinas,36.6777,-121.6555,73.0,65,0,6.91,US,2022-03-25 19:52:22,haze
603,Honggang,46.4667,124.8667,31.78,85,28,3.87,CN,2022-03-25 19:56:47,scattered clouds
604,Zunyi,27.6867,106.9072,54.46,92,98,4.09,CN,2022-03-25 19:56:47,overcast clouds
605,Cavan,53.9908,-7.3606,47.37,90,7,3.83,IE,2022-03-25 19:56:48,clear sky
606,Athabasca,54.7169,-113.2854,21.61,71,100,7.96,CA,2022-03-25 19:56:31,overcast clouds
607,Lagoa,39.05,-27.9833,58.89,93,100,32.88,PT,2022-03-25 19:58:04,overcast clouds
608,Richards Bay,-28.783,32.0377,70.59,87,100,3.53,ZA,2022-03-25 19:58:04,light rain
609,Bonavista,48.6499,-53.1147,29.71,80,100,9.64,CA,2022-03-25 19:58:04,overcast clouds
610,Hobyo,5.3505,48.5268,81.25,81,95,11.7,SO,2022-03-25 19:58:05,overcast clouds
611,Rapid Valley,44.0625,-103.1463,53.76,22,15,8.99,US,2022-03-25 19:56:37,few clouds
612,Bom Jesus Da Lapa,-13.255,-43.4181,94.87,25,23,2.48,BR,2022-03-25 19:58:06,few clouds
613,Bowen,-20.0167,148.2333,76.66,76,100,11.52,AU,2022-03-25 19:58:06,overcast clouds
614,Morehead,37.2711,-87.1764,47.95,62,100,11.5,US,2022-03-25 19:58:07,overcast clouds
615,May Pen,17.9645,-77.2451,83.41,50,95,11.74,JM,2022-03-25 19:58:07,overcast clouds
616,Batsfjord,70.6345,29.7185,21.25,76,100,9.42,NO,2022-03-25 19:58:08,light snow
617,East Retford,53.3221,-0.9432,55.53,65,0,1.14,GB,2022-03-25 19:58:08,clear sky
618,Okhotsk,59.3833,143.3,-2.6,86,82,9.93,RU,2022-03-25 19:58:09,broken clouds
619,Rivne,50.6231,26.2274,43.34,66,57,5.95,UA,2022-03-25 19:58:09,broken clouds
620,Constantine,36.365,6.6147,56.61,50,75,4.61,DZ,2022-03-25 19:57:58,broken clouds
621,Caravelas,-17.7125,-39.2481,80.11,74,53,7.27,BR,2022-03-25 19:58:10,broken clouds
622,Nawalgarh,27.85,75.2667,77.11,11,0,3.74,IN,2022-03-25 19:58:10,clear sky
623,Ambon,-3.6954,128.1814,77.14,94,40,2.3,ID,2022-03-25 19:58:11,scattered clouds
624,Lebowakgomo,-24.2,29.5,65.3,92,100,3.91,ZA,2022-03-25 19:58:11,moderate rain
625,Jorhat,26.75,94.2167,67.64,87,67,7.36,IN,2022-03-25 19:58:11,broken clouds
626,Kandy,7.2955,80.6356,69.48,95,20,1.81,LK,2022-03-25 19:58:12,few clouds
627,Bubaque,11.2833,-15.8333,76.05,69,4,16.46,GW,2022-03-25 19:54:03,clear sky
628,Deputatskiy,69.3,139.9,-10.17,93,73,6.11,RU,2022-03-25 19:58:12,broken clouds
629,Kapit,2.0167,112.9333,73.51,99,99,0.4,MY,2022-03-25 19:58:13,overcast clouds
630,Chilca,-12.5211,-76.7372,71.78,78,64,6.46,PE,2022-03-25 19:58:13,broken clouds
631,Hasaki,35.7333,140.8333,57.6,75,100,22.46,JP,2022-03-25 19:58:14,overcast clouds
632,Narsaq,60.9167,-46.05,27.79,74,6,1.5,GL,2022-03-25 19:58:14,clear sky
633,Goksun,38.021,36.4973,22.51,88,13,4.56,TR,2022-03-25 19:58:15,few clouds
634,Khunti,23.0833,85.2833,77.31,25,37,6.15,IN,2022-03-25 19:58:15,scattered clouds
635,Santa Maria,-29.6842,-53.8069,72.7,56,20,8.05,BR,2022-03-25 19:55:59,few clouds
636,Kerchevskiy,59.946,56.2884,13.91,94,61,3.13,RU,2022-03-25 19:58:16,broken clouds
637,Nadadores,27.05,-101.6,86.59,5,0,4.32,MX,2022-03-25 19:58:16,clear sky
638,Olinda,-8.0089,-34.8553,82.13,74,40,14.97,BR,2022-03-25 19:58:17,scattered clouds
639,Simbahan,6.3032,120.5836,79.97,81,100,1.25,PH,2022-03-25 19:58:17,overcast clouds
640,Finnsnes,69.2296,17.9811,29.75,96,100,4.14,NO,2022-03-25 19:58:18,light snow
641,Littleton,39.6133,-105.0166,64.24,39,0,3.0,US,2022-03-25 19:58:18,clear sky
642,Xichang,27.8964,102.2634,55.4,79,100,5.19,CN,2022-03-25 19:58:18,overcast clouds
643,Najran,17.4924,44.1277,75.85,16,0,0.85,SA,2022-03-25 19:58:36,clear sky
644,Koutsouras,35.0339,25.9469,56.1,58,0,5.99,GR,2022-03-25 19:59:23,clear sky
645,Aitape,-3.1374,142.3475,77.49,87,100,4.9,PG,2022-03-25 19:59:24,light rain
646,Misratah,32.3754,15.0925,58.55,65,0,19.8,LY,2022-03-25 19:59:24,clear sky
647,Odienne,9.51,-7.5692,79.66,68,42,3.8,CI,2022-03-25 19:59:25,light rain
648,Bac Lieu,9.285,105.7244,81.48,75,0,4.81,VN,2022-03-25 19:59:25,clear sky
649,Teacapan,22.55,-105.75,78.51,45,40,10.2,MX,2022-03-25 19:59:26,scattered clouds
650,Barentu,15.1139,37.5928,70.97,37,3,7.27,ER,2022-03-25 19:59:26,clear sky
651,Yar-Sale,66.8333,70.8333,4.42,94,99,14.07,RU,2022-03-25 19:59:27,overcast clouds
652,Winslow,35.0242,-110.6974,75.96,12,0,1.99,US,2022-03-25 19:59:27,clear sky
653,Pong,19.1493,100.2752,75.9,62,6,2.51,TH,2022-03-25 19:59:28,clear sky
654,Qui Nhon,13.7667,109.2333,77.14,87,94,5.57,VN,2022-03-25 19:59:28,overcast clouds
655,Xiaoweizhai,26.1903,107.5125,58.15,96,100,5.12,CN,2022-03-25 19:59:30,overcast clouds
656,Bathsheba,13.2167,-59.5167,83.01,65,20,24.16,BB,2022-03-25 19:59:30,few clouds
657,Ngora,1.4314,33.7772,69.76,75,49,3.22,UG,2022-03-25 19:59:31,light rain
658,Markova,48.6758,24.4138,37.36,79,37,4.56,UA,2022-03-25 19:59:31,scattered clouds
659,Amot,59.5714,7.9877,39.7,98,100,4.83,NO,2022-03-25 19:59:31,overcast clouds
660,Turukhansk,65.8167,87.9833,20.28,77,100,20.71,RU,2022-03-25 19:59:32,overcast clouds
661,Rio Branco,-9.9747,-67.81,77.61,94,75,0.0,BR,2022-03-25 19:59:32,very heavy rain
662,Subang,-7.1277,108.5283,73.09,96,100,1.88,ID,2022-03-25 19:59:33,moderate rain
663,San Pedro,14.35,121.0167,81.63,72,20,2.3,PH,2022-03-25 19:59:33,few clouds
664,Knysna,-34.0363,23.0471,61.39,90,89,6.49,ZA,2022-03-25 19:59:34,overcast clouds
665,Qaqortoq,60.7167,-46.0333,28.18,72,6,2.51,GL,2022-03-25 19:59:34,clear sky
666,Kuandian,40.7286,124.7847,40.41,94,100,6.42,CN,2022-03-25 19:59:34,moderate rain
667,San Javier,37.8063,-0.8374,59.04,82,75,24.0,ES,2022-03-25 19:59:35,light rain
668,Binga,-17.6203,27.3414,74.48,81,42,1.63,ZW,2022-03-25 19:59:35,scattered clouds
669,Montego Bay,18.4712,-77.9188,82.2,69,40,13.8,JM,2022-03-25 19:59:36,scattered clouds
670,San Narciso,15.0143,120.0803,78.8,77,6,5.23,PH,2022-03-25 19:59:36,clear sky
671,Wajima,37.4,136.9,50.32,73,100,6.62,JP,2022-03-25 19:59:37,overcast clouds
672,Tskaltubo,42.3254,42.5979,38.34,87,75,4.61,GE,2022-03-25 19:59:37,broken clouds
673,Kelo,9.3086,15.8066,89.2,14,100,4.36,TD,2022-03-25 19:59:38,overcast clouds
674,Awbari,26.5921,12.7805,62.58,21,0,10.69,LY,2022-03-25 19:59:39,clear sky
675,Sur,22.5667,59.5289,82.11,33,0,6.98,OM,2022-03-25 19:59:39,clear sky
676,Veraval,20.9,70.3667,77.49,70,21,10.09,IN,2022-03-25 19:59:39,few clouds
677,Tabou,4.423,-7.3528,80.26,85,85,6.62,CI,2022-03-25 19:59:40,overcast clouds
678,Macapa,0.0389,-51.0664,85.98,74,75,11.5,BR,2022-03-25 19:59:41,broken clouds
679,San Jeronimo,-11.9472,-75.2829,60.84,64,100,6.38,PE,2022-03-25 19:59:41,overcast clouds
680,Katobu,-4.9408,122.5276,75.4,91,98,2.1,ID,2022-03-25 19:59:42,overcast clouds
681,Marawi,7.9986,124.2928,67.71,96,64,1.07,PH,2022-03-25 19:59:42,broken clouds
